[
  {
    "name": "Rattlesnake Ledge",
    "location": "North Bend, WA",
    "coordinates": { "lat": 47.4324, "lng": -121.7702 },
    "distance_mi": 4.0,
    "elevation_gain_ft": 1100,
    "difficulty": "Easy",
    "estimated_time": "2-3 hours",
    "trail_type": "out-and-back",
    "scenery_photo_url": "images/rattlesnakeledge_hike1.jpg"
  },
  {
    "name": "Franklin Falls",
    "location": "Snoqualmie Pass, WA",
    "coordinates": { "lat": 47.4318, "lng": -121.5784 },
    "distance_mi": 2.0,
    "elevation_gain_ft": 400,
    "difficulty": "Easy",
    "estimated_time": "1-2 hours",
    "trail_type": "out-and-back",
    "scenery_photo_url": "images/franklinfalls_hike2.jpg"
  },
  {
    "name": "Twin Falls",
    "location": "Olallie State Park, WA",
    "coordinates": { "lat": 47.4607, "lng": -121.6997 },
    "distance_mi": 2.6,
    "elevation_gain_ft": 500,
    "difficulty": "Easy",
    "estimated_time": "1.5-2.5 hours",
    "trail_type": "out-and-back",
    "scenery_photo_url": "images/twinfalls_hike3.jpg"
  },
  {
    "name": "Little Si",
    "location": "North Bend, WA",
    "coordinates": { "lat": 47.4883, "lng": -121.7270 },
    "distance_mi": 5.0,
    "elevation_gain_ft": 1200,
    "difficulty": "Easy",
    "estimated_time": "2-3 hours",
    "trail_type": "out-and-back",
    "scenery_photo_url": "images/littlesi.jpg"
  },
  {
    "name": "Poo Poo Point",
    "location": "Issaquah, WA",
    "coordinates": { "lat": 47.4785, "lng": -121.9873 },
    "distance_mi": 3.8,
    "elevation_gain_ft": 1600,
    "difficulty": "Moderate",
    "estimated_time": "2.5-4 hours",
    "trail_type": "out-and-back",
    "scenery_photo_url": "images/poopoopoint.jpg"
  },
  {
    "name": "Snow Lake",
    "location": "Snoqualmie Pass, WA",
    "coordinates": { "lat": 47.4492, "lng": -121.4518 },
    "distance_mi": 7.2,
    "elevation_gain_ft": 1800,
    "difficulty": "Moderate",
    "estimated_time": "3-5 hours",
    "trail_type": "out-and-back",
    "scenery_photo_url": "images/snowlake.jpg"
  },
  {
    "name": "Tiger Mountain Trail",
    "location": "Issaquah, WA",
    "coordinates": { "lat": 47.5092, "lng": -121.9708 },
    "distance_mi": 13.8,
    "elevation_gain_ft": 2600,
    "difficulty": "Moderate",
    "estimated_time": "5-7 hours",
    "trail_type": "loop",
    "scenery_photo_url": "images/tigermountain.jpg"
  },
  {
    "name": "Mailbox Peak",
    "location": "North Bend, WA",
    "coordinates": { "lat": 47.5026, "lng": -121.6814 },
    "distance_mi": 9.4,
    "elevation_gain_ft": 4000,
    "difficulty": "Hard",
    "estimated_time": "5-8 hours",
    "trail_type": "out-and-back",
    "scenery_photo_url": "images/mailboxpeak.jpg"
  },
  {
    "name": "Mount Si",
    "location": "North Bend, WA",
    "coordinates": { "lat": 47.4883, "lng": -121.7253 },
    "distance_mi": 8.0,
    "elevation_gain_ft": 3150,
    "difficulty": "Hard",
    "estimated_time": "4-6 hours",
    "trail_type": "out-and-back",
    "scenery_photo_url": "images/mountsi.jpg"
  },
  {
    "name": "Lake Serene",
    "location": "Index, WA",
    "coordinates": { "lat": 47.8138, "lng": -121.4224 },
    "distance_mi": 8.0,
    "elevation_gain_ft": 2521,
    "difficulty": "Hard",
    "estimated_time": "5-7 hours",
    "trail_type": "out-and-back",
    "scenery_photo_url": "images/lakeserene.jpg"
  },
  {
    "name": "Tolmie Peak Lookout",
    "location": "Mount Rainier National Park, WA",
    "coordinates": { "lat": 46.9357, "lng": -121.8692 },
    "distance_mi": 6.5,
    "elevation_gain_ft": 1010,
    "difficulty": "Moderate",
    "estimated_time": "3-4 hours",
    "trail_type": "loop",
    "scenery_photo_url": "images/tolmiepeak.jpg"
  },
  {
    "name": "Skyline Trail",
    "location": "Mount Rainier National Park, WA",
    "coordinates": { "lat": 46.7864, "lng": -121.7358 },
    "distance_mi": 5.5,
    "elevation_gain_ft": 1400,
    "difficulty": "Moderate",
    "estimated_time": "3-4 hours",
    "trail_type": "loop",
    "scenery_photo_url": "images/skylinetrail.jpg"
  },
  {
    "name": "Chain Lakes Loop",
    "location": "Mount Baker, WA",
    "coordinates": { "lat": 48.8568, "lng": -121.6918 },
    "distance_mi": 6.7,
    "elevation_gain_ft": 1700,
    "difficulty": "Moderate",
    "estimated_time": "3-5 hours",
    "trail_type": "loop",
    "scenery_photo_url": "images/chainlakes.jpg"
  },
  {
    "name": "Heather Lake",
    "location": "Granite Falls, WA",
    "coordinates": { "lat": 48.0832, "lng": -121.7570 },
    "distance_mi": 4.6,
    "elevation_gain_ft": 1100,
    "difficulty": "Easy",
    "estimated_time": "2-3 hours",
    "trail_type": "out-and-back",
    "scenery_photo_url": "images/heatherlake.jpg"
  },
  {
    "name": "Artist Point",
    "location": "Mount Baker, WA",
    "coordinates": { "lat": 48.8550, "lng": -121.6882 },
    "distance_mi": 2.0,
    "elevation_gain_ft": 350,
    "difficulty": "Easy",
    "estimated_time": "1-2 hours",
    "trail_type": "out-and-back",
    "scenery_photo_url": "images/artistpoint.jpg"
  },
  {
    "name": "Enchantments Core Zone",
    "location": "Leavenworth, WA",
    "coordinates": { "lat": 47.5119, "lng": -120.8204 },
    "distance_mi": 18.0,
    "elevation_gain_ft": 4800,
    "difficulty": "Hard",
    "estimated_time": "10-14 hours",
    "trail_type": "out-and-back",
    "scenery_photo_url": "images/enchantments.jpg"
  },
  {
    "name": "Spray Park",
    "location": "Mount Rainier National Park, WA",
    "coordinates": { "lat": 46.9438, "lng": -121.8567 },
    "distance_mi": 7.6,
    "elevation_gain_ft": 1500,
    "difficulty": "Moderate",
    "estimated_time": "3-5 hours",
    "trail_type": "out-and-back",
    "scenery_photo_url": "images/spraypark.jpg"
  },
  {
    "name": "Cape Flattery",
    "location": "Neah Bay, WA",
    "coordinates": { "lat": 48.3837, "lng": -124.7178 },
    "distance_mi": 1.5,
    "elevation_gain_ft": 200,
    "difficulty": "Easy",
    "estimated_time": "1-1.5 hours",
    "trail_type": "out-and-back",
    "scenery_photo_url": "images/capeflattery.jpg"
  },
  {
    "name": "Hurricane Hill",
    "location": "Olympic National Park, WA",
    "coordinates": { "lat": 48.0023, "lng": -123.5187 },
    "distance_mi": 8.0,
    "elevation_gain_ft": 1600,
    "difficulty": "Moderate",
    "estimated_time": "3-5 hours",
    "trail_type": "out-and-back",
    "scenery_photo_url": "images/hurricanehill.jpg"
  },
  {
    "name": "Mount Storm King",
    "location": "Olympic National Park, WA",
    "coordinates": { "lat": 48.0554, "lng": -123.8673 },
    "distance_mi": 4.2,
    "elevation_gain_ft": 2200,
    "difficulty": "Hard",
    "estimated_time": "3-5 hours",
    "trail_type": "out-and-back",
    "scenery_photo_url": "images/stormking.jpg"
  }
]